[
    {
        "address": "pool way, whitehill road, off newmarket road",
        "area": "east",
        "entrance fee": "?",
        "id": "1",
        "location": "Cambridge",
        "name": "abbey pool and astroturf pitch",
        "openhours": "?",
        "phone": "01223902088",
        "postcode": "cb58nt",
        "pricerange": "?",
        "type": "swimmingpool"
    },
    {
        "address": "park street",
        "area": "centre",
        "entrance fee": "?",
        "id": "2",
        "location": "Cambridge",
        "name": "adc theatre",
        "openhours": "?",
        "phone": "01223300085",
        "postcode": "cb58as",
        "pricerange": "?",
        "type": "theatre"
    },
    {
        "address": "jesus lane",
        "area": "centre",
        "entrance fee": "free",
        "id": "3",
        "location": "Cambridge",
        "name": "all saints church",
        "openhours": "it opens normally daily from 9 a.m. to 5 p.m., at other times the key can be borrowed from a nearby key holder.",
        "phone": "01223452587",
        "postcode": "cb58bs",
        "pricerange": "free",
        "type": "architecture"
    },
    {
        "address": "heidelberg gardens, lion yard",
        "area": "centre",
        "entrance fee": "5 pounds",
        "id": "4",
        "location": "Cambridge",
        "name": "ballare",
        "openhours": "it opens from 10:30 p.m. to 03:30 a.m on Thursday, from 11:00 p.m. to 04:00 a.m. on Friday, from 10:00 p.m. to 03:30 a.m. on Saturday, and from 10:00 p.m. to 02:30 a.m. on Monday",
        "phone": "01223364222",
        "postcode": "cb23na",
        "pricerange": "moderate",
        "type": "nightclub"
    },
    {
        "address": "98 king street",
        "area": "centre",
        "entrance fee": "free",
        "id": "5",
        "location": "Cambridge",
        "name": "broughton house gallery",
        "openhours": "?",
        "phone": "01223314960",
        "postcode": "cb11ln",
        "pricerange": "free",
        "type": "museum"
    },
    {
        "address": "14 king's parade",
        "area": "south",
        "entrance fee": "free",
        "id": "6",
        "location": "Cambridge",
        "name": "byard art",
        "openhours": "it opens from 09:30 a.m. to 5:30 p.m. from Monday to Saturday, and from 11:00 a.m. to 4:00 p.m. on Sunday",
        "phone": "01223464646",
        "postcode": "cb21sj",
        "pricerange": "free",
        "type": "museum"
    },
    {
        "address": "cafe jello gallery, 13 magdalene street",
        "area": "west",
        "entrance fee": "free",
        "id": "7",
        "location": "Cambridge",
        "name": "cafe jello gallery",
        "openhours": "it opens from 10:30 a.m. to 5:30 p.m. Thursday to Saturday",
        "phone": "01223312112",
        "postcode": "cb30af",
        "pricerange": "free",
        "type": "museum"
    },
    {
        "address": "the plough, green end, fen ditton,",
        "area": "east",
        "entrance fee": "?",
        "id": "8",
        "location": "Cambridge",
        "name": "camboats",
        "openhours": "?",
        "phone": "01223902112",
        "postcode": "cb58sx",
        "pricerange": "?",
        "type": "boat"
    },
    {
        "address": "2-3 castle street",
        "area": "west",
        "entrance fee": "3.50 pounds",
        "id": "9",
        "location": "Cambridge",
        "name": "cambridge and county folk museum",
        "openhours": "it opens from Monday to Saturday, 10 a.m. to 5 p.m. while on Sunday it opens from 2 p.m. to 5 p.m.",
        "phone": "01223355159",
        "postcode": "cb30aq",
        "pricerange": "moderate",
        "type": "museum"
    },
    {
        "address": "6 saint edward's passage",
        "area": "centre",
        "entrance fee": "?",
        "id": "10",
        "location": "Cambridge",
        "name": "cambridge arts theatre",
        "openhours": "?",
        "phone": "01223503333",
        "postcode": "cb23pj",
        "pricerange": "?",
        "type": "theatre"
    },
    {
        "address": "5 greens road",
        "area": "east",
        "entrance fee": "free",
        "id": "11",
        "location": "Cambridge",
        "name": "cambridge artworks",
        "openhours": "?",
        "phone": "01223902168",
        "postcode": "cb13ef",
        "pricerange": "free",
        "type": "museum"
    },
    {
        "address": "49 newnham road",
        "area": "west",
        "entrance fee": "free",
        "id": "12",
        "location": "Cambridge",
        "name": "cambridge book and print gallery",
        "openhours": "it opens from 10:00 a.m. to 5:00 p.m. from Tuesday to Saturday",
        "phone": "01223694264",
        "postcode": "cb39ey",
        "pricerange": "free",
        "type": "museum"
    },
    {
        "address": "6 trinity street",
        "area": "centre",
        "entrance fee": "free",
        "id": "13",
        "location": "Cambridge",
        "name": "cambridge contemporary art",
        "openhours": "it opens from 11:00 a.m. to 4:00 p.m. on Sunday, and from 09:00 a.m. to 5:30 p.m. from Monday to Saturday",
        "phone": "01223324222",
        "postcode": "cb21su",
        "pricerange": "free",
        "type": "museum"
    },
    {
        "address": "the old pumping station, cheddars lane",
        "area": "east",
        "entrance fee": "5 pounds",
        "id": "14",
        "location": "Cambridge",
        "name": "cambridge museum of technology",
        "openhours": "it opens on Sunday from 2:00 p.m. to 5:00 p.m.",
        "phone": "01223368650",
        "postcode": "cb58ld",
        "pricerange": "expensive",
        "type": "museum"
    },
    {
        "address": "bateman street",
        "area": "centre",
        "entrance fee": "4 pounds",
        "id": "15",
        "location": "Cambridge",
        "name": "cambridge university botanic gardens",
        "openhours": "it opens from 10:00 a.m. to 6:00 p.m. from april to september, from 10:00 a.m. to 5:00 p.m. in february march and october, and from 10:00 a.m. to 4:00 p.m. from november to january",
        "phone": "01223336265",
        "postcode": "cb21jf",
        "pricerange": "moderate",
        "type": "park"
    },
    {
        "address": "unit su43, grande arcade, saint andrews street",
        "area": "centre",
        "entrance fee": "free",
        "id": "16",
        "location": "Cambridge",
        "name": "castle galleries",
        "openhours": "it opens from 09:00 a.m. to 6:00 p.m. every day except Wednesday when it opens from 09:00 a.m. to 8:00 p.m., and Sunday when it opens from 11:00 a.m. to 5:00 p.m.",
        "phone": "01223307402",
        "postcode": "cb23bj",
        "pricerange": "free",
        "type": "museum"
    },
    {
        "address": "cherry hinton road",
        "area": "east",
        "entrance fee": "?",
        "id": "17",
        "location": "Cambridge",
        "name": "cherry hinton hall and grounds",
        "openhours": "?",
        "phone": "01223446104",
        "postcode": "cb18dw",
        "pricerange": "?",
        "type": "entertainment"
    },
    {
        "address": "cherry hinton hall, cherry hinton road",
        "area": "east",
        "entrance fee": "free",
        "id": "18",
        "location": "Cambridge",
        "name": "cherry hinton water play",
        "openhours": "it opens from may to september",
        "phone": "01223446100",
        "postcode": "cb18dw",
        "pricerange": "free",
        "type": "park"
    },
    {
        "address": "saint andrew's street",
        "area": "centre",
        "entrance fee": "free",
        "id": "19",
        "location": "Cambridge",
        "name": "christ's college",
        "openhours": "it opens normally daily from 9 a.m. to 5 p.m. except easter term",
        "phone": "01223334900",
        "postcode": "cb23bu",
        "pricerange": "free",
        "type": "college"
    },
    {
        "address": "storey's way",
        "area": "west",
        "entrance fee": "free",
        "id": "20",
        "location": "Cambridge",
        "name": "churchill college",
        "openhours": "it opens normally daily from 9 a.m. to 5 p.m. except easter term",
        "phone": "01223336233",
        "postcode": "cb30ds",
        "pricerange": "free",
        "type": "college"
    },
    {
        "address": "cambridge leisure park, clifton way",
        "area": "south",
        "entrance fee": "?",
        "id": "21",
        "location": "Cambridge",
        "name": "cineworld cinema",
        "openhours": "?",
        "phone": "00872208000",
        "postcode": "cb17dy",
        "pricerange": "?",
        "type": "cinema"
    },
    {
        "address": "trinity lane",
        "area": "west",
        "entrance fee": "2.50 pounds",
        "id": "22",
        "location": "Cambridge",
        "name": "clare college",
        "openhours": "it opens normally daily from 9 a.m. to 5 p.m. except easter term",
        "phone": "01223333200",
        "postcode": "cb21tl",
        "pricerange": "moderate",
        "type": "college"
    },
    {
        "address": "herschel road",
        "area": "west",
        "entrance fee": "free",
        "id": "23",
        "location": "Cambridge",
        "name": "clare hall",
        "openhours": "it opens normally daily from 9 a.m. to 5 p.m. except easter term",
        "phone": "01223332360",
        "postcode": "cb39al",
        "pricerange": "free",
        "type": "college"
    },
    {
        "address": "1 station road",
        "area": "centre",
        "entrance fee": "5 pounds",
        "id": "24",
        "location": "Cambridge",
        "name": "club salsa",
        "openhours": "it opens at the university social club from 9:30 p.m. to 11:30 p.m. on Wednesday, and from 10:00 p.m. to 01:00 a.m. on Friday",
        "phone": "07782218745",
        "postcode": "cb12jb",
        "pricerange": "moderate",
        "type": "nightclub"
    },
    {
        "address": "king's parade",
        "area": "centre",
        "entrance fee": "2 pounds",
        "id": "25",
        "location": "Cambridge",
        "name": "corpus christi",
        "openhours": "it opens normally daily from 9 a.m. to 5 p.m. except easter term",
        "phone": "01223338000",
        "postcode": "cb21rh",
        "pricerange": "cheap",
        "type": "college"
    },
    {
        "address": "regent street",
        "area": "centre",
        "entrance fee": "free",
        "id": "26",
        "location":"Cambridge",
        "name": "downing college",
        "openhours": "it opens daily from 9 a.m. to 5 p.m. except during easter term",
        "phone": "01223334860",
        "postcode": "cb21dq",
        "pricerange": "free",
        "type": "college"
    },
    {
        "address": "saint andrew's street",
        "area": "centre",
        "entrance fee": "free",
        "id": "27",
        "location": "Cambridge",
        "name": "emmanuel college",
        "openhours": "it opens normally daily from 9 a.m. to 5 p.m. except easter term",
        "phone": "01223334200",
        "postcode": "cb23ap",
        "pricerange": "free",
        "type": "college"
    },
    {
        "address": "8 mercers row, mercers row industrial estate",
        "area": "east",
        "entrance fee": "?",
        "id": "28",
        "location": "Cambridge",
        "name": "funky fun house",
        "openhours": "?",
        "phone": "01223304705",
        "postcode": "cb58hy",
        "pricerange": "?",
        "type": "entertainment"
    },
    {
        "address": "fulbourn",
        "area": "east",
        "entrance fee": "free",
        "id": "29",
        "location": "Cambridge",
        "name": "gallery at twelve a high street",
        "openhours": "?",
        "phone": "01223295264",
        "postcode": "cb15dh",
        "pricerange": "free",
        "type": "museum"
    },
    {
        "address": "trinity street",
        "area": "centre",
        "entrance fee": "free",
        "id": "30",
        "location": "Cambridge",
        "name": "gonville and caius college",
        "openhours": "it opens normally daily from 9 a.m. to 5 p.m. except easter term",
        "phone": "01223332400",
        "postcode": "cb21ta",
        "pricerange": "free",
        "type": "college"
    },
    {
        "address": "market square",
        "area": "centre",
        "entrance fee": "2 pounds",
        "id": "31",
        "location": "Cambridge",
        "name": "great saint mary's church",
        "openhours": "it opens normally daily from 9 a.m. to 5 p.m.",
        "phone": "01223350914",
        "postcode": "cb23pq",
        "pricerange": "cheap",
        "type": "architecture"
    },
    {
        "address": "market street",
        "area": "centre",
        "entrance fee": "free",
        "id": "32",
        "location": "Cambridge",
        "name": "holy trinity church",
        "openhours": "it opens normally daily from 9 a.m. to 5 p.m.",
        "phone": "01223355397",
        "postcode": "cb23nz",
        "pricerange": "free",
        "type": "architecture"
    },
    {
        "address": "wollaston road",
        "area": "centre",
        "entrance fee": "free",
        "id": "33",
        "location": "Cambridge",
        "name": "hughes hall",
        "openhours": "it opens normally daily from 9 a.m. to 5 p.m. except easter term",
        "phone": "01223334898",
        "postcode": "cb12ew",
        "pricerange": "free",
        "type": "college"
    },
    {
        "address": "jesus lane",
        "area": "centre",
        "entrance fee": "free",
        "id": "34",
        "location": "Cambridge",
        "name": "jesus college",
        "openhours": "it opens normally daily from 9 a.m. to 5 p.m. except easter term",
        "phone": "01223339485",
        "postcode": "cb58bl",
        "pricerange": "free",
        "type": "college"
    },
    {
        "address": "between victoria road and the river",
        "area": "north",
        "entrance fee": "?",
        "id": "35",
        "location": "Cambridge",
        "name": "jesus green outdoor pool",
        "openhours": "?",
        "phone": "01223302579",
        "postcode": "cb43px",
        "pricerange": "?",
        "type": "swimmingpool"
    },
    {
        "address": "1 wheeler street",
        "area": "centre",
        "entrance fee": "5 pounds",
        "id": "36",
        "location":"Cambridge",
        "name": "kambar",
        "openhours": "it opens from 10:00 p.m. to 4:00 a.m. depending on whether there is an event on or not",
        "phone": "01223842725",
        "postcode": "cb23qb",
        "pricerange": "moderate",
        "type": "nightclub"
    },
    {
        "address": "castle street",
        "area": "west",
        "entrance fee": "free",
        "id": "37",
        "location": "Cambridge",
        "name": "kettle's yard",
        "openhours": "it opens from 11:30 a.m. to 5:00 p.m. Tuesday to Sunday",
        "phone": "01223748100",
        "postcode": "cb30aq",
        "pricerange": "free",
        "type": "museum"
    },
    {
        "address": "king's parade",
        "area": "centre",
        "entrance fee": "free",
        "id": "38",
        "location": "Cambridge",
        "name": "king's college",
        "openhours": "it opens normally daily from 9 a.m. to 5 p.m. except easter term",
        "phone": "01223331100",
        "postcode": "cb21st",
        "pricerange": "free",
        "type": "college"
    },
    {
        "address": "jedburgh court, kings hedges",
        "area": "north",
        "entrance fee": "?",
        "id": "39",
        "location": "Cambridge",
        "name": "kings hedges learner pool",
        "openhours": "?",
        "phone": "01223353248",
        "postcode": "cb42xh",
        "pricerange": "?",
        "type": "swimmingpool"
    },
    {
        "address": "little saint mary's lane",
        "area": "centre",
        "entrance fee": "free",
        "id": "40",
        "location": "Cambridge",
        "name": "little saint mary's church",
        "openhours": "it opens normally daily from 9 a.m. to 5 p.m.",
        "phone": "01223366202",
        "postcode": "cb21qy",
        "pricerange": "free",
        "type": "architecture"
    },
    {
        "address": "23 high street, fen ditton",
        "area": "west",
        "entrance fee": "free",
        "id": "41",
        "location":"Cambridge",
        "name": "lynne strover gallery",
        "openhours": "it opens from 10:00 a.m. to 5:00 p.m. Thursday to Saturday",
        "phone": "01223295264",
        "postcode": "cb30aq",
        "pricerange": "free",
        "type": "museum"
    },
    {
        "address": "magdalene street",
        "area": "west",
        "entrance fee": "free",
        "id": "42",
        "location":"Cambridge",
        "name": "magdalene college",
        "openhours": "it opens normally daily from 9 a.m. to 5 p.m. except easter term",
        "phone": "01223332138",
        "postcode": "cb30ag",
        "pricerange": "free",
        "type": "college"
    },
    {
        "address": "milton country park, milton",
        "area": "north",
        "entrance fee": "free",
        "id": "43",
        "location":"Cambridge",
        "name": "milton country park",
        "openhours": "always",
        "phone": "01223420060",
        "postcode": "cb46az",
        "pricerange": "free",
        "type": "park"
    },
    {
        "address": "anglia ruskin enterprise, east road",
        "area": "centre",
        "entrance fee": "?",
        "id": "44",
        "location":"Cambridge",
        "name": "mumford theatre",
        "openhours": "?",
        "phone": "08451962320",
        "postcode": "cb11pt",
        "pricerange": "?",
        "type": "theatre"
    },
    {
        "address": "university of cambridge, downing street",
        "area": "centre",
        "entrance fee": "free",
        "id": "45",
        "location":"Cambridge",
        "name": "museum of archaelogy and anthropology",
        "openhours": "it opens from 10:30 a.m. to 4:30 p.m. Tuesday to Saturday",
        "phone": "01223333516",
        "postcode": "cb23dz",
        "pricerange": "free",
        "type": "museum"
    },
    {
        "address": "sidgwick avenue",
        "area": "west",
        "entrance fee": "free",
        "id": "46",
        "location":"Cambridge",
        "name": "museum of classical archaeology",
        "openhours": "it opens from 10:00 a.m. to 5:00 p.m. Monday to Friday",
        "phone": "01223335153",
        "postcode": "cb39da",
        "pricerange": "free",
        "type": "museum"
    },
    {
        "address": "unit g6, cambridge leisure park, clifton road",
        "area": "south",
        "entrance fee": "?",
        "id": "47",
        "location": "Cambridge",
        "name": "nusha",
        "openhours": "it opens from 5:00 p.m. to 01:30 a.m. on Tuesday, Friday and Saturday, and from 5:00 p.m. to midnight on Monday, Wednesday, Thursday and Sunday.",
        "phone": "01223902158",
        "postcode": "cb17dy",
        "pricerange": "?",
        "type": "entertainment"
    },
    {
        "address": "trinity lane",
        "area": "centre",
        "entrance fee": "free",
        "id": "48",
        "location":"Cambridge",
        "name": "old schools",
        "openhours": "it opens normally daily from 08:00 a.m. to 5:45 p.m.",
        "phone": "01223332320",
        "postcode": "cb21tt",
        "pricerange": "free",
        "type": "architecture"
    },
    {
        "address": "gonville place",
        "area": "centre",
        "entrance fee": "?",
        "id": "49",
        "location": "Cambridge",
        "name": "parkside pools",
        "openhours": "?",
        "phone": "01223446100",
        "postcode": "cb11ly",
        "pricerange": "?",
        "type": "swimmingpool"
    },
    {
        "address": "trumpington street",
        "area": "centre",
        "entrance fee": "free",
        "id": "50",
        "location": "Cambridge",
        "name": "pembroke college",
        "openhours": "any time except may and june",
        "phone": "01223338100",
        "postcode": "cb21rf",
        "pricerange": "free",
        "type": "college"
    },
    {
        "address": "girton college, huntingdon road",
        "area": "west",
        "entrance fee": "free",
        "id": "51",
        "location": "Cambridge",
        "name": "people's portraits exhibition at girton college",
        "openhours": "it opens from 2:00 p.m. to 4:00 p.m. daily from february to july",
        "phone": "01223338901",
        "postcode": "cb3ojg",
        "pricerange": "free",
        "type": "museum"
    },
    {
        "address": "10 king s parade",
        "area": "centre",
        "entrance fee": "free",
        "id": "52",
        "location": "Cambridge",
        "name": "primavera",
        "openhours": "it opens from 11:00 a.m. to 4:30 p.m. on Sunday, from 10:00 a.m. to 5:00 p.m. from Monday to Friday, and from 10:00 a.m. to 5:30 p.m. on Saturday",
        "phone": "01223357708",
        "postcode": "cb21sj",
        "pricerange": "free",
        "type": "museum"
    },
    {
        "address": "silver street",
        "area": "west",
        "entrance fee": "2.50 pounds",
        "id": "53",
        "location": "Cambridge",
        "name": "queens' college",
        "openhours": "Monday to Sunday 10 a.m. to 4:30 p.m.",
        "phone": "01223335511",
        "postcode": "cb39et",
        "pricerange": "moderate",
        "type": "college"
    },
    {
        "address": "39 fitzroy street",
        "area": "centre",
        "entrance fee": "free",
        "id": "54",
        "location": "Cambridge",
        "name": "regency gallery",
        "openhours": "?",
        "phone": "01223365454",
        "postcode": "cb11er",
        "pricerange": "free",
        "type": "museum"
    },
    {
        "address": "cambridge passenger cruisers, jubilee house",
        "area": "north",
        "entrance fee": "?",
        "id": "55",
        "location": "Cambridge",
        "name": "riverboat georgina",
        "openhours": "?",
        "phone": "01223902091",
        "postcode": "cb43ax",
        "pricerange": "?",
        "type": "boat"
    },
    {
        "address": "anglia ruskin university, east road",
        "area": "centre",
        "entrance fee": "free",
        "id": "56",
        "location": "Cambridge",
        "name": "ruskin gallery",
        "openhours": "?",
        "phone": "01245493131",
        "postcode": "cb11pt",
        "pricerange": "free",
        "type": "museum"
    },
    {
        "address": "the belfast yard, coldham's road",
        "area": "east",
        "entrance fee": "free",
        "id": "57",
        "location": "Cambridge",
        "name": "saint barnabas press gallery",
        "openhours": "?",
        "phone": "01223902116",
        "postcode": "cb13ew",
        "pricerange": "free",
        "type": "museum"
    },
    {
        "address": "king's parade",
        "area": "centre",
        "entrance fee": "free",
        "id": "58",
        "location": "Cambridge",
        "name": "saint catharine's college",
        "openhours": "it opens normally daily from 9 a.m. to 5 p.m. except easter term",
        "phone": "01223338300",
        "postcode": "cb21rl",
        "pricerange": "free",
        "type": "college"
    },
    {
        "address": "saint john's street",
        "area": "centre",
        "entrance fee": "2.50 pounds",
        "id": "59",
        "location":"Cambridge",
        "name": "saint john's college",
        "openhours": "it opens normally daily from 9 a.m. to 5 p.m. except easter term",
        "phone": "01223338600",
        "postcode": "cb21tp",
        "pricerange": "moderate",
        "type": "college"
    },
    {
        "address": "lensfield road",
        "area": "centre",
        "entrance fee": "free",
        "id": "60",
        "location": "Cambridge",
        "name": "scott polar museum",
        "openhours": "it opens from 10:00 a.m. to 4:00 p.m. from Tuesday to Saturday",
        "phone": "01223336540",
        "postcode": "cb21er",
        "pricerange": "free",
        "type": "museum"
    },
    {
        "address": "granta place, mill lane",
        "area": "centre",
        "entrance fee": "?",
        "id": "61",
        "location":"Cambridge",
        "name": "scudamores punting co",
        "openhours": "?",
        "phone": "01223359750",
        "postcode": "cb21rs",
        "pricerange": "?",
        "type": "boat"
    },
    {
        "address": "fen causeway, newnham road,",
        "area": "south",
        "entrance fee": "free",
        "id": "62",
        "location": "Cambridge",
        "name": "sheep's green and lammas land park fen causeway",
        "openhours": "it is open from may to sept",
        "phone": "01223302580",
        "postcode": "cb22ad",
        "pricerange": "free",
        "type": "park"
    },
    {
        "address": "sidney street",
        "area": "centre",
        "entrance fee": "free",
        "id": "63",
        "location": "Cambridge",
        "name": "sidney sussex college",
        "openhours": "it opens daily from 9 a.m. to 5 p.m. except during easter term",
        "phone": "01223338800",
        "postcode": "cb23hu",
        "pricerange": "free",
        "type": "college"
    },
    {
        "address": "1-6 corn exchange street",
        "area": "centre",
        "entrance fee": "4 pounds",
        "id": "64",
        "location":"Cambridge",
        "name": "soul tree nightclub",
        "openhours": "it opens from 9:30 p.m. to 02:00 a.m. from Sunday to Tuesday, from 9:00 p.m. to 02:00 a.m. on Wednesday, and from 9:00 p.m. to 02:30 a.m. from Thursday to Saturday",
        "phone": "01223477900",
        "postcode": "cb23qf",
        "pricerange": "cheap",
        "type": "nightclub"
    },
    {
        "address": "cambridge leisure park, clifton way",
        "area": "south",
        "entrance fee": "?",
        "id": "65",
        "location": "Cambridge",
        "name": "tenpin",
        "openhours": "?",
        "phone": "08715501010",
        "postcode": "cb17dy",
        "pricerange": "?",
        "type": "entertainment"
    },
    {
        "address": "wheeler street",
        "area": "centre",
        "entrance fee": "?",
        "id": "66",
        "location":"Cambridge",
        "name": "the cambridge corn exchange",
        "openhours": "?",
        "phone": "01223357851",
        "postcode": "cb23qe",
        "pricerange": "?",
        "type": "theatre"
    },
    {
        "address": "251a chesterton road",
        "area": "centre",
        "entrance fee": "?",
        "id": "67",
        "location": "Cambridge",
        "name": "the cambridge punter",
        "openhours": "?",
        "phone": "07807718591",
        "postcode": "cb41as",
        "pricerange": "?",
        "type": "boat"
    },
    {
        "address": "colville road, cherry hinton",
        "area": "east",
        "entrance fee": "?",
        "id": "68",
        "location": "Cambridge",
        "name": "the cherry hinton village centre",
        "openhours": "it opens from 09:00 a.m. to 8:00 p.m. on Sunday, and from 09:00 a.m. to 10:00 p.m. from Monday to Saturday",
        "phone": "01223576412",
        "postcode": "cb19ej",
        "pricerange": "?",
        "type": "mutliple sports"
    },
    {
        "address": "8 market passage",
        "area": "centre",
        "entrance fee": "5 pounds",
        "id": "69",
        "location": "Cambridge",
        "name": "the fez club",
        "openhours": "it opens on Monday from 9 p.m. to 2 a.m.. it is closed on Tuesday. from Wednesday to Saturday it opens from 9 p.m. to 2 a.m. and it is closed on Sunday",
        "phone": "01223519224",
        "postcode": "cb23hx",
        "pricerange": "moderate",
        "type": "nightclub"
    },
    {
        "address": "trumpington street",
        "area": "centre",
        "entrance fee": "free",
        "id": "70",
        "location": "Cambridge",
        "name": "the fitzwilliam museum",
        "openhours": "from Tuesday to Saturday it opens from 10 a.m. to 5 p.m. while on Sunday, Monday and bank holidays it opens from 12 to 5 p.m.",
        "phone": "01223332900",
        "postcode": "cb21rb",
        "pricerange": "free",
        "type": "museum"
    },
    {
        "address": "clifton way",
        "area": "south",
        "entrance fee": "?",
        "id": "71",
        "location": "Cambridge",
        "name": "the junction",
        "openhours": "?",
        "phone": "01223511511",
        "postcode": "cb17gx",
        "pricerange": "?",
        "type": "theatre"
    },
    {
        "address": "2 norfolk street",
        "area": "centre",
        "entrance fee": "?",
        "id": "72",
        "location": "Cambridge",
        "name": "the man on the moon",
        "openhours": "?",
        "phone": "01223474144",
        "postcode": "cb12lf",
        "pricerange": "?",
        "type": "concerthall"
    },
    {
        "address": "22 sidney street",
        "area": "south",
        "entrance fee": "?",
        "id": "73",
        "location": "Cambridge",
        "name": "the place",
        "openhours": "it opens from 10:30 p.m. to 03:30 a.m. on Tuesday, from 10:00 p.m. to 02:30 a.m. on Thursday, from 10:00 p.m. to 04:00 a.m. on Friday and Saturday, and from 10:00 p.m. to 02:00 a.m. on Sunday",
        "phone": "01223324600",
        "postcode": "cb23hg",
        "pricerange": "moderate",
        "type": "nightclub"
    },
    {
        "address": "trinity street",
        "area": "centre",
        "entrance fee": "1 pound",
        "id": "74",
        "location":"Cambridge",
        "name": "trinity college",
        "openhours": "it opens normally daily from 9 a.m. to 5 p.m. except easter term",
        "phone": "01223338400",
        "postcode": "cb21tq",
        "pricerange": "cheap",
        "type": "college"
    },
    {
        "address": "the grafton centre, east road",
        "area": "centre",
        "entrance fee": "?",
        "id": "75",
        "location": "Cambridge",
        "name": "vue cinema",
        "openhours": "?",
        "phone": "08712240240",
        "postcode": "cb11ps",
        "pricerange": "?",
        "type": "cinema"
    },
    {
        "address": "wandlebury ring, gog magog hills, babraham",
        "area": "south",
        "entrance fee": "free",
        "id": "76",
        "location": "Cambridge",
        "name": "wandlebury country park",
        "openhours": "always",
        "phone": "01223243830",
        "postcode": "cb223ae",
        "pricerange": "free",
        "type": "park"
    },
    {
        "address": "unit 8, viking way, bar hill",
        "area": "west",
        "entrance fee": "?",
        "id": "77",
        "location": "Cambridge",
        "name": "whale of a time",
        "openhours": "it opens from 09:30 a.m. to 6:00 p.m. daily",
        "phone": "01954781018",
        "postcode": "cb238el",
        "pricerange": "?",
        "type": "entertainment"
    },
    {
        "address": "free school lane",
        "area": "centre",
        "entrance fee": "free",
        "id": "78",
        "location": "Cambridge",
        "name": "whipple museum of the history of science",
        "openhours": "it opens from 12:30 p.m. to 4:30 p.m. from Monday to Friday",
        "phone": "01223330906",
        "postcode": "cb23rh",
        "pricerange": "free",
        "type": "museum"
    },
    {
        "address": "gwydir street, no. 5 dale's brewery",
        "area": "centre",
        "entrance fee": "free",
        "id": "79",
        "location": "Cambridge",
        "name": "williams art and antiques",
        "openhours": "it opens from 11:00 a.m. to 6:00 p.m. from Tuesday to Friday, from 11:00 a.m. to 5:00 p.m. on Saturday and Sunday, and it is closed on Monday",
        "phone": "01223311687",
        "postcode": "cb12lj",
        "pricerange": "free",
        "type": "museum"
    }
]
